{
  "schemaVersion": 1,
  "country": "GR",
  "defaultRadiusMeters": 3000,
  "cities": [
    {
      "id": "athens",
      "name": "Athens",
      "localName": "Αθήνα",
      "region": "Attica",
      "group": "Mainland",
      "lat": 37.9838,
      "lng": 23.7275,
      "priority": 1,
      "isActive": true,
      "defaultRadiusMeters": 4000,
      "tags": ["capital", "history", "food", "nightlife"],
      "preferredTypes": ["tourist_attraction", "museum", "restaurant", "bar"],
      "featuredPlaceIds": []
    },
    {
      "id": "thessaloniki",
      "name": "Thessaloniki",
      "localName": "Θεσσαλονίκη",
      "region": "Central Macedonia",
      "group": "Mainland",
      "lat": 40.6401,
      "lng": 22.9444,
      "priority": 1,
      "isActive": true,
      "defaultRadiusMeters": 3500,
      "tags": ["citybreak", "food", "nightlife", "history"],
      "preferredTypes": ["tourist_attraction", "restaurant", "cafe", "bar"],
      "featuredPlaceIds": []
    },
    {
      "id": "heraklion",
      "name": "Heraklion",
      "localName": "Ηράκλειο",
      "region": "Crete",
      "group": "Crete",
      "lat": 35.3387,
      "lng": 25.1442,
      "priority": 1,
      "isActive": true,
      "defaultRadiusMeters": 5000,
      "tags": ["base", "history", "food"],
      "preferredTypes": ["tourist_attraction", "museum", "restaurant"],
      "featuredPlaceIds": []
    },
    {
      "id": "chania",
      "name": "Chania",
      "localName": "Χανιά",
      "region": "Crete",
      "group": "Crete",
      "lat": 35.5138,
      "lng": 24.0180,
      "priority": 1,
      "isActive": true,
      "defaultRadiusMeters": 4000,
      "tags": ["oldtown", "beaches", "food"],
      "preferredTypes": ["tourist_attraction", "restaurant", "natural_feature"],
      "featuredPlaceIds": []
    },
    {
      "id": "rhodes-town",
      "name": "Rhodes Town",
      "localName": "Ρόδος",
      "region": "South Aegean",
      "group": "Dodecanese",
      "lat": 36.4340,
      "lng": 28.2170,
      "priority": 1,
      "isActive": true,
      "defaultRadiusMeters": 3500,
      "tags": ["oldtown", "history", "base"],
      "preferredTypes": ["tourist_attraction", "restaurant", "bar"],
      "featuredPlaceIds": []
    }
  ]
}